%time,field.header.seq,field.header.stamp,field.header.frame_id,field.status.status,field.status.service,field.latitude,field.longitude,field.altitude,field.position_covariance0,field.position_covariance1,field.position_covariance2,field.position_covariance3,field.position_covariance4,field.position_covariance5,field.position_covariance6,field.position_covariance7,field.position_covariance8,field.position_covariance_type
1646632431600008091,6743,1646632431599851932,gnss,-1,1,35.152945564,136.967559227,84.3506,2.6748,1.2424,-2.0226,1.2424,3.0641,-2.7126,-2.0226,-2.7126,7.8223,3
1646632431801092954,6744,1646632431800991316,gnss,-1,1,35.152945649,136.96755906,84.3926,2.6748,1.2424,-2.0225,1.2424,3.0641,-2.7125,-2.0225,-2.7125,7.8223,3
1646632432002242104,6745,1646632432002129096,gnss,-1,1,35.152945293,136.967559039,84.3853,2.6748,1.2423,-2.0225,1.2423,3.0641,-2.7124,-2.0225,-2.7124,7.8222,3
1646632432194488831,6746,1646632432194369807,gnss,-1,1,35.152945268,136.967558579,84.366,2.6748,1.2423,-2.0225,1.2423,3.064,-2.7123,-2.0225,-2.7123,7.8222,3
1646632432397614584,6747,1646632432397065972,gnss,-1,1,35.152945365,136.967558624,84.3322,2.6748,1.2423,-2.0224,1.2423,3.064,-2.7122,-2.0224,-2.7122,7.8221,3
1646632432598207490,6748,1646632432598012672,gnss,-1,1,35.152945256,136.967558511,84.3981,2.6748,1.2423,-2.0224,1.2423,3.064,-2.7121,-2.0224,-2.7121,7.8221,3
1646632432801895934,6749,1646632432801554857,gnss,-1,1,35.152945198,136.967558413,84.3715,2.6748,1.2423,-2.0224,1.2423,3.064,-2.712,-2.0224,-2.712,7.822,3
1646632433007852346,6750,1646632433002074249,gnss,-1,1,35.152945229,136.967558523,84.4327,2.6748,1.2423,-2.0223,1.2423,3.0639,-2.7118,-2.0223,-2.7118,7.822,3
1646632433201647451,6751,1646632433201538195,gnss,-1,1,35.152945181,136.967558889,84.3981,2.6748,1.2423,-2.0223,1.2423,3.0639,-2.7117,-2.0223,-2.7117,7.8219,3
1646632433396400279,6752,1646632433395922933,gnss,-1,1,35.152944892,136.967558777,84.3235,2.6748,1.2423,-2.0223,1.2423,3.0639,-2.7116,-2.0223,-2.7116,7.8219,3
1646632433596081363,6753,1646632433595851679,gnss,-1,1,35.152944594,136.967558351,84.3641,2.6748,1.2422,-2.0222,1.2422,3.0639,-2.7115,-2.0222,-2.7115,7.8218,3
1646632433795251960,6754,1646632433795105122,gnss,-1,1,35.152945394,136.967559166,84.4277,2.7296,1.3417,-1.9926,1.3417,3.1,-2.6923,-1.9926,-2.6923,7.8248,3
1646632433998258362,6755,1646632433998049261,gnss,-1,1,35.152944024,136.967557903,84.3194,2.6748,1.2422,-2.0222,1.2422,3.0638,-2.7113,-2.0222,-2.7113,7.8217,3
1646632434199510627,6756,1646632434199345119,gnss,-1,1,35.152945291,136.967559323,84.3739,2.7296,1.3416,-1.9925,1.3416,3.0999,-2.6921,-1.9925,-2.6921,7.8247,3
1646632434401509863,6757,1646632434401275857,gnss,-1,1,35.152945248,136.967559045,84.5347,2.7296,1.3416,-1.9925,1.3416,3.0999,-2.692,-1.9925,-2.692,7.8247,3
1646632434602563229,6758,1646632434602332766,gnss,-1,1,35.152944865,136.967558674,84.5435,2.7296,1.3416,-1.9924,1.3416,3.0999,-2.6919,-1.9924,-2.6919,7.8246,3
1646632434793674443,6759,1646632434793341568,gnss,-1,1,35.152943925,136.967557553,84.4283,2.6748,1.2422,-2.022,1.2422,3.0637,-2.7108,-2.022,-2.7108,7.8215,3
1646632434993622185,6760,1646632434993500481,gnss,-1,1,35.152944511,136.967558055,84.5957,2.7296,1.3416,-1.9924,1.3416,3.0998,-2.6917,-1.9924,-2.6917,7.8245,3
1646632435204868755,6761,1646632435204746832,gnss,-1,1,35.152944196,136.967557459,84.7334,2.7296,1.3416,-1.9923,1.3416,3.0998,-2.6915,-1.9923,-2.6915,7.8245,3
1646632435396130324,6762,1646632435395997801,gnss,-1,1,35.152944196,136.967557486,84.7641,2.7296,1.3416,-1.9923,1.3416,3.0998,-2.6914,-1.9923,-2.6914,7.8244,3
1646632435608000501,6763,1646632435607809873,gnss,-1,1,35.152944021,136.967557043,84.7914,2.7296,1.3416,-1.9923,1.3416,3.0997,-2.6913,-1.9923,-2.6913,7.8244,3
1646632435799065552,6764,1646632435798950087,gnss,-1,1,35.152943946,136.967557067,84.8196,2.7297,1.3416,-1.9922,1.3416,3.0997,-2.6912,-1.9922,-2.6912,7.8243,3
1646632436001258539,6765,1646632436000886399,gnss,-1,1,35.152943706,136.96755681,84.9324,2.7297,1.3415,-1.9922,1.3415,3.0997,-2.6911,-1.9922,-2.6911,7.8243,3
1646632436201861366,6766,1646632436201741928,gnss,-1,1,35.152943318,136.967556025,84.9824,2.7297,1.3415,-1.9922,1.3415,3.0997,-2.691,-1.9922,-2.691,7.8242,3
1646632436393952793,6767,1646632436393654480,gnss,-1,1,35.152943098,136.967555657,84.9927,2.7297,1.3415,-1.9921,1.3415,3.0996,-2.6909,-1.9921,-2.6909,7.8242,3
1646632436604995927,6768,1646632436604793323,gnss,-1,1,35.152943209,136.967555435,85.0128,2.7297,1.3415,-1.9921,1.3415,3.0996,-2.6907,-1.9921,-2.6907,7.8241,3
1646632436796161746,6769,1646632436795970108,gnss,-1,1,35.152943091,136.967555016,85.1506,2.7297,1.3415,-1.992,1.3415,3.0996,-2.6906,-1.992,-2.6906,7.8241,3
1646632436997232116,6770,1646632436997038536,gnss,-1,1,35.152943179,136.967555168,85.1342,2.7297,1.3415,-1.992,1.3415,3.0996,-2.6905,-1.992,-2.6905,7.824,3
1646632437197551973,6771,1646632437197435633,gnss,-1,1,35.152942674,136.967554879,85.2016,2.7297,1.3415,-1.992,1.3415,3.0995,-2.6904,-1.992,-2.6904,7.824,3
1646632437399700413,6772,1646632437399541532,gnss,-1,1,35.152942605,136.967554602,85.2751,2.7297,1.3415,-1.9919,1.3415,3.0995,-2.6903,-1.9919,-2.6903,7.8239,3
1646632437603461362,6773,1646632437602971975,gnss,-1,1,35.152941723,136.967553215,85.3128,2.6748,1.242,-2.0216,1.242,3.0634,-2.7093,-2.0216,-2.7093,7.8208,3
1646632437793242605,6774,1646632437792911018,gnss,-1,1,35.152941783,136.967553213,85.2586,2.6748,1.242,-2.0215,1.242,3.0634,-2.7092,-2.0215,-2.7092,7.8208,3
1646632437995735928,6775,1646632437995207163,gnss,-1,1,35.15294279,136.967553926,85.3977,2.7297,1.3414,-1.9918,1.3414,3.0994,-2.69,-1.9918,-2.69,7.8238,3
1646632438198088452,6776,1646632438197754008,gnss,-1,1,35.152942894,136.967553801,85.4177,2.7297,1.3414,-1.9918,1.3414,3.0994,-2.6898,-1.9918,-2.6898,7.8237,3
1646632438396115662,6777,1646632438395995396,gnss,-1,1,35.152943218,136.967553768,85.4864,2.7297,1.3414,-1.9918,1.3414,3.0994,-2.6897,-1.9918,-2.6897,7.8237,3
1646632438617929761,6778,1646632438617825519,gnss,-1,1,35.152942477,136.967552708,85.4457,2.6748,1.242,-2.0214,1.242,3.0633,-2.7087,-2.0214,-2.7087,7.8206,3
1646632438800323030,6779,1646632438799984359,gnss,-1,1,35.152942217,136.967552426,85.4842,2.6748,1.242,-2.0214,1.242,3.0632,-2.7086,-2.0214,-2.7086,7.8205,3
1646632439001383963,6780,1646632439001135206,gnss,-1,1,35.152942518,136.967552687,85.4628,2.6748,1.2419,-2.0213,1.2419,3.0632,-2.7085,-2.0213,-2.7085,7.8205,3
1646632439211709908,6781,1646632439211598024,gnss,-1,1,35.152942551,136.967552585,85.4517,2.6748,1.2419,-2.0213,1.2419,3.0632,-2.7084,-2.0213,-2.7084,7.8204,3
1646632439393241229,6782,1646632439393102300,gnss,-1,1,35.152943143,136.96755325,85.442,2.7297,1.3414,-1.9916,1.3414,3.0993,-2.6892,-1.9916,-2.6892,7.8235,3
1646632439594489622,6783,1646632439594362811,gnss,-1,1,35.152942644,136.967552188,85.3714,2.6748,1.2419,-2.0212,1.2419,3.0631,-2.7082,-2.0212,-2.7082,7.8203,3
1646632439796388883,6784,1646632439796234229,gnss,-1,1,35.152942902,136.967552415,85.3925,2.6748,1.2419,-2.0212,1.2419,3.0631,-2.7081,-2.0212,-2.7081,7.8203,3
1646632439997673603,6785,1646632439997538019,gnss,-1,1,35.15294394,136.967553539,85.3697,2.7297,1.3413,-1.9915,1.3413,3.0992,-2.6888,-1.9915,-2.6888,7.8233,3
1646632440198827425,6786,1646632440198713180,gnss,-1,1,35.152943424,136.967552921,85.3022,2.6748,1.2419,-2.0211,1.2419,3.0631,-2.7078,-2.0211,-2.7078,7.8202,3
1646632440401366728,6787,1646632440401150891,gnss,-1,1,35.152943462,136.967553045,85.3409,2.6748,1.2419,-2.0211,1.2419,3.063,-2.7077,-2.0211,-2.7077,7.8201,3
1646632440601701086,6788,1646632440601469466,gnss,-1,1,35.152943922,136.967553366,85.3332,2.6748,1.2418,-2.0211,1.2418,3.063,-2.7076,-2.0211,-2.7076,7.8201,3
1646632440802270662,6789,1646632440802120497,gnss,-1,1,35.152944532,136.967553359,85.3121,2.6748,1.2418,-2.021,1.2418,3.063,-2.7075,-2.021,-2.7075,7.82,3
1646632440995496937,6790,1646632440994941035,gnss,-1,1,35.152945574,136.96755464,85.1631,2.7297,1.3413,-1.9913,1.3413,3.0991,-2.6883,-1.9913,-2.6883,7.8231,3
1646632441194399781,6791,1646632441194245154,gnss,-1,1,35.152944643,136.967553965,85.0947,2.6748,1.2418,-2.021,1.2418,3.0629,-2.7073,-2.021,-2.7073,7.8199,3
1646632441399874420,6792,1646632441399514069,gnss,-1,1,35.152944931,136.967553992,85.0901,2.6748,1.2418,-2.0209,1.2418,3.0629,-2.7072,-2.0209,-2.7072,7.8199,3
1646632441609728953,6793,1646632441609470074,gnss,-1,1,35.152945106,136.967554264,84.9672,2.6748,1.2418,-2.0209,1.2418,3.0629,-2.7071,-2.0209,-2.7071,7.8199,3
1646632441800471174,6794,1646632441800148162,gnss,-1,1,35.15294483,136.967554306,84.9453,2.6748,1.2418,-2.0209,1.2418,3.0629,-2.707,-2.0209,-2.707,7.8198,3
1646632442000398768,6795,1646632442000159380,gnss,-1,1,35.152944927,136.967554457,84.876,2.6748,1.2418,-2.0208,1.2418,3.0628,-2.7068,-2.0208,-2.7068,7.8198,3
1646632442201401478,6796,1646632442201278377,gnss,-1,1,35.152945081,136.96755475,84.8784,2.6748,1.2418,-2.0208,1.2418,3.0628,-2.7067,-2.0208,-2.7067,7.8197,3
1646632442393966924,6797,1646632442393817843,gnss,-1,1,35.152945137,136.967554798,84.8456,2.6748,1.2417,-2.0208,1.2417,3.0628,-2.7066,-2.0208,-2.7066,7.8197,3
1646632442595260498,6798,1646632442595148081,gnss,-1,1,35.152946003,136.967555745,84.9411,2.7297,1.3412,-1.991,1.3412,3.0989,-2.6873,-1.991,-2.6873,7.8227,3
1646632442798486137,6799,1646632442798134309,gnss,-1,1,35.152946463,136.967555916,84.9318,2.7297,1.3412,-1.9909,1.3412,3.0989,-2.6872,-1.9909,-2.6872,7.8226,3
1646632442998070557,6800,1646632442997917303,gnss,-1,1,35.152945624,136.967555303,84.9146,2.6748,1.2417,-2.0207,1.2417,3.0627,-2.7063,-2.0207,-2.7063,7.8195,3
1646632443199127753,6801,1646632443199012315,gnss,-1,1,35.15294702,136.967556903,84.8981,2.7297,1.3412,-1.9909,1.3412,3.0988,-2.687,-1.9909,-2.687,7.8225,3
1646632443401725607,6802,1646632443401477987,gnss,-1,1,35.152946447,136.967555811,84.7668,2.6749,1.2417,-2.0206,1.2417,3.0627,-2.7061,-2.0206,-2.7061,7.8194,3
1646632443601816197,6803,1646632443601698581,gnss,-1,1,35.152946567,136.967555499,84.8511,2.6749,1.2417,-2.0206,1.2417,3.0626,-2.7059,-2.0206,-2.7059,7.8194,3
1646632443792958711,6804,1646632443792821864,gnss,-1,1,35.152946533,136.967556216,84.8358,2.6749,1.2417,-2.0205,1.2417,3.0626,-2.7058,-2.0205,-2.7058,7.8193,3
1646632443994135178,6805,1646632443993998800,gnss,-1,1,35.152947333,136.967556788,84.9376,2.7297,1.3411,-1.9907,1.3411,3.0987,-2.6866,-1.9907,-2.6866,7.8223,3
1646632444195258602,6806,1646632444195133579,gnss,-1,1,35.152947022,136.967556229,84.9908,2.7297,1.3411,-1.9907,1.3411,3.0987,-2.6864,-1.9907,-2.6864,7.8223,3
1646632444397120874,6807,1646632444396934277,gnss,-1,1,35.152946723,136.967556576,85.0304,2.7297,1.3411,-1.9907,1.3411,3.0987,-2.6863,-1.9907,-2.6863,7.8222,3
1646632444608901351,6808,1646632444608704156,gnss,-1,1,35.152946765,136.967556927,84.974,2.7297,1.3411,-1.9906,1.3411,3.0986,-2.6862,-1.9906,-2.6862,7.8222,3
1646632444800990465,6809,1646632444800722666,gnss,-1,1,35.152946941,136.96755708,85.0289,2.7297,1.3411,-1.9906,1.3411,3.0986,-2.6861,-1.9906,-2.6861,7.8221,3
1646632445000991445,6810,1646632445000796324,gnss,-1,1,35.152946907,136.967556857,85.0495,2.7297,1.3411,-1.9905,1.3411,3.0986,-2.686,-1.9905,-2.686,7.8221,3
1646632445201154952,6811,1646632445201034515,gnss,-1,1,35.152947014,136.967556926,85.0208,2.7297,1.3411,-1.9905,1.3411,3.0986,-2.6859,-1.9905,-2.6859,7.822,3
1646632445402361619,6812,1646632445402241525,gnss,-1,1,35.152946629,136.967556956,84.9826,2.7298,1.3411,-1.9905,1.3411,3.0986,-2.6858,-1.9905,-2.6858,7.822,3
1646632445603505166,6813,1646632445603355356,gnss,-1,1,35.152946731,136.967557024,84.9987,2.7298,1.3411,-1.9904,1.3411,3.0985,-2.6856,-1.9904,-2.6856,7.8219,3
1646632445795645553,6814,1646632445795527464,gnss,-1,1,35.152946776,136.967556666,85.1199,2.7298,1.3411,-1.9904,1.3411,3.0985,-2.6855,-1.9904,-2.6855,7.8219,3
1646632445997438250,6815,1646632445997239402,gnss,-1,1,35.152946734,136.967556649,85.1302,2.7298,1.341,-1.9904,1.341,3.0985,-2.6854,-1.9904,-2.6854,7.8218,3
1646632446198604471,6816,1646632446198490246,gnss,-1,1,35.152946413,136.967556868,85.1024,2.7298,1.341,-1.9903,1.341,3.0985,-2.6853,-1.9903,-2.6853,7.8218,3
1646632446400919604,6817,1646632446400708219,gnss,-1,1,35.152945527,136.967555433,85.0608,2.6749,1.2415,-2.0201,1.2415,3.0623,-2.7044,-2.0201,-2.7044,7.8187,3
1646632446602102497,6818,1646632446601929242,gnss,-1,1,35.152945949,136.96755522,85.1224,2.6749,1.2415,-2.02,1.2415,3.0623,-2.7043,-2.02,-2.7043,7.8186,3
1646632446793507693,6819,1646632446793278332,gnss,-1,1,35.152946366,136.967554693,85.1672,2.6749,1.2415,-2.02,1.2415,3.0622,-2.7042,-2.02,-2.7042,7.8186,3
1646632446994939197,6820,1646632446994614996,gnss,-1,1,35.152930579,136.967535503,94.0734,2.6269,1.136,-1.1639,1.136,3.0216,-2.1732,-1.1639,-2.1732,7.1199,3
1646632447205019587,6821,1646632447204888421,gnss,-1,1,35.152947201,136.967553731,85.1015,2.6749,1.2415,-2.0199,1.2415,3.0622,-2.7039,-2.0199,-2.7039,7.8185,3
1646632447396019084,6822,1646632447395900643,gnss,-1,1,35.15294876,136.967553677,85.2457,2.7202,1.3291,-1.9234,1.3291,3.0959,-2.6382,-1.9234,-2.6382,7.8562,3
1646632447607467064,6823,1646632447607330406,gnss,-1,1,35.152949561,136.967552385,85.2552,2.7202,1.3291,-1.9234,1.3291,3.0959,-2.6381,-1.9234,-2.6381,7.8562,3
1646632447797584115,6824,1646632447797444343,gnss,-1,1,35.15295042,136.967551336,85.1333,2.7202,1.3291,-1.9233,1.3291,3.0958,-2.638,-1.9233,-2.638,7.8561,3
1646632447999513280,6825,1646632447999282002,gnss,-1,1,35.152950861,136.967547866,84.9914,2.6749,1.2414,-2.0198,1.2414,3.0621,-2.7035,-2.0198,-2.7035,7.8183,3
1646632448210754678,6826,1646632448210628539,gnss,-1,1,35.152952673,136.967545244,85.0251,2.6749,1.2414,-2.0198,1.2414,3.0621,-2.7034,-2.0198,-2.7034,7.8182,3
1646632448402765263,6827,1646632448402568990,gnss,-1,1,35.152954636,136.967542412,85.0258,2.6749,1.2414,-2.0197,1.2414,3.0621,-2.7033,-2.0197,-2.7033,7.8182,3
1646632448603817399,6828,1646632448603626532,gnss,-1,1,35.152956986,136.967539848,85.1453,2.7202,1.329,-1.9231,1.329,3.0957,-2.6375,-1.9231,-2.6375,7.856,3
1646632448794879259,6829,1646632448794633485,gnss,-1,1,35.152959418,136.967536312,85.1267,2.7202,1.329,-1.9231,1.329,3.0957,-2.6373,-1.9231,-2.6373,7.8559,3
1646632448996252632,6830,1646632448995926426,gnss,-1,1,35.152962186,136.967532209,85.2545,2.7202,1.329,-1.923,1.329,3.0957,-2.6372,-1.923,-2.6372,7.8559,3
1646632449196231688,6831,1646632449196118674,gnss,-1,1,35.152964962,136.967527418,85.2177,2.6749,1.2414,-2.0196,1.2414,3.062,-2.7028,-2.0196,-2.7028,7.818,3
1646632449398531010,6832,1646632449398314206,gnss,-1,1,35.15296926,136.967523196,85.2647,2.6749,1.2414,-2.0196,1.2414,3.0619,-2.7027,-2.0196,-2.7027,7.8179,3
1646632449599585340,6833,1646632449599479762,gnss,-1,1,35.152957942,136.967501063,93.4464,2.581,1.0343,-1.3196,1.0343,2.9876,-2.2525,-1.3196,-2.2525,7.0748,3
1646632449799761941,6834,1646632449799632528,gnss,-1,1,35.152963074,136.967497451,93.1963,2.581,1.0343,-1.3196,1.0343,2.9876,-2.2524,-1.3196,-2.2524,7.0748,3
1646632450001133279,6835,1646632450000896033,gnss,-1,1,35.152968174,136.967493758,93.0125,2.581,1.0343,-1.3195,1.0343,2.9876,-2.2523,-1.3195,-2.2523,7.0747,3
1646632450201267924,6836,1646632450201158319,gnss,-1,1,35.152974615,136.967496731,91.3905,2.5783,0.9724,-1.1926,0.9724,2.7922,-1.4751,-1.1926,-1.4751,6.5284,3
1646632450393391045,6837,1646632450393151036,gnss,-1,1,35.152993035,136.9675028,85.5146,2.6749,1.2413,-2.0194,1.2413,3.0618,-2.7022,-2.0194,-2.7022,7.8177,3
1646632450614782418,6838,1646632450614535075,gnss,-1,1,35.152998291,136.967499105,85.3617,2.6625,1.1129,-1.794,1.1129,2.8268,-1.8352,-1.794,-1.8352,7.0664,3
1646632450795895370,6839,1646632450795610183,gnss,-1,1,35.153004044,136.967495487,85.3761,2.6625,1.1129,-1.794,1.1129,2.8268,-1.835,-1.794,-1.835,7.0663,3
1646632450996151295,6840,1646632450996032050,gnss,-1,1,35.15300978,136.967491196,85.4689,2.6749,1.2413,-2.0193,1.2413,3.0617,-2.7018,-2.0193,-2.7018,7.8175,3
1646632451206355772,6841,1646632451206233771,gnss,-1,1,35.153015271,136.967486248,85.453,2.6749,1.2413,-2.0193,1.2413,3.0617,-2.7017,-2.0193,-2.7017,7.8175,3
1646632451397487979,6842,1646632451397374830,gnss,-1,1,35.153020793,136.967480482,85.4258,2.6749,1.2412,-2.0193,1.2412,3.0617,-2.7016,-2.0193,-2.7016,7.8174,3
1646632451598762766,6843,1646632451598602087,gnss,-1,1,35.153026535,136.967473733,85.4645,2.6749,1.2412,-2.0192,1.2412,3.0617,-2.7015,-2.0192,-2.7015,7.8174,3
1646632451801587057,6844,1646632451801340051,gnss,-1,1,35.153032194,136.967466777,85.481,2.6749,1.2412,-2.0192,1.2412,3.0616,-2.7014,-2.0192,-2.7014,7.8173,3
1646632452003136186,6845,1646632452002935435,gnss,-1,1,35.153038597,136.967459573,85.4344,2.6626,1.1129,-1.7939,1.1129,2.8268,-1.8343,-1.7939,-1.8343,7.0661,3
1646632452193297039,6846,1646632452193183612,gnss,-1,1,35.153044641,136.967451748,85.4687,2.6626,1.1129,-1.7938,1.1129,2.8267,-1.8342,-1.7938,-1.8342,7.066,3
1646632452404719858,6847,1646632452404414203,gnss,-1,1,35.153051519,136.967445294,85.5144,2.7484,1.2691,-1.8366,1.2691,2.879,-1.8677,-1.8366,-1.8677,7.0696,3
1646632452597559430,6848,1646632452597141899,gnss,-1,1,35.153056931,136.967435972,85.4214,2.6626,1.1129,-1.7938,1.1129,2.8267,-1.8339,-1.7938,-1.8339,7.0659,3
1646632452798514356,6849,1646632452798270765,gnss,-1,1,35.153063067,136.967426848,85.3627,2.6626,1.1129,-1.7938,1.1129,2.8267,-1.8338,-1.7938,-1.8338,7.0659,3
1646632453000527105,6850,1646632453000313308,gnss,-1,1,35.153069941,136.967417724,85.2674,2.6626,1.1129,-1.7937,1.1129,2.8267,-1.8337,-1.7937,-1.8337,7.0658,3
1646632453200654902,6851,1646632453200527497,gnss,-1,1,35.153076595,136.967407833,85.2187,2.6626,1.1129,-1.7937,1.1129,2.8267,-1.8336,-1.7937,-1.8336,7.0658,3
1646632453401883423,6852,1646632453401743821,gnss,-1,1,35.153083152,136.967397421,85.2298,2.6626,1.1129,-1.7937,1.1129,2.8267,-1.8335,-1.7937,-1.8335,7.0657,3
1646632453593836589,6853,1646632453593640220,gnss,-1,1,35.153089847,136.967386951,85.2527,2.6626,1.1129,-1.7937,1.1129,2.8267,-1.8333,-1.7937,-1.8333,7.0657,3
1646632453795097918,6854,1646632453794850778,gnss,-1,1,35.153096411,136.967376336,85.2363,2.6626,1.1129,-1.7937,1.1129,2.8267,-1.8332,-1.7937,-1.8332,7.0656,3
1646632453996339885,6855,1646632453996090296,gnss,-1,1,35.153103478,136.967365529,85.214,2.6626,1.1129,-1.7936,1.1129,2.8267,-1.8331,-1.7936,-1.8331,7.0656,3
1646632454216563083,6856,1646632454216439697,gnss,-1,1,35.153110436,136.967354501,85.1413,2.6626,1.1129,-1.7936,1.1129,2.8267,-1.833,-1.7936,-1.833,7.0656,3
1646632454401660845,6857,1646632454401288630,gnss,-1,1,35.1531171,136.967342998,85.0607,2.6626,1.1129,-1.7936,1.1129,2.8266,-1.8328,-1.7936,-1.8328,7.0655,3
1646632454601242471,6858,1646632454600967008,gnss,-1,1,35.153124154,136.96733119,85.1122,2.6626,1.1129,-1.7936,1.1129,2.8266,-1.8327,-1.7936,-1.8327,7.0655,3
1646632454802598003,6859,1646632454802355227,gnss,-1,1,35.153131067,136.967318969,85.1067,2.7254,1.301,-1.6584,1.301,2.9592,-1.6765,-1.6584,-1.6765,7.1135,3
1646632454992826604,6860,1646632454992675306,gnss,-1,1,35.153137602,136.96730708,84.998,2.6734,1.1843,-1.7834,1.1843,2.9083,-1.8039,-1.7834,-1.8039,7.067,3
1646632455204078864,6861,1646632455203960612,gnss,-1,1,35.1531443,136.967294919,84.9478,2.6734,1.1843,-1.7833,1.1843,2.9083,-1.8038,-1.7833,-1.8038,7.067,3
1646632455395147188,6862,1646632455395028562,gnss,-1,1,35.153151466,136.967283197,84.9571,2.8062,1.4538,-1.5592,1.4538,3.0255,-1.5839,-1.5592,-1.5839,7.1294,3
1646632455596978224,6863,1646632455596789186,gnss,-1,1,35.15315786,136.967271362,85.0652,2.9118,1.6431,-1.2271,1.6431,3.1182,-1.2687,-1.2271,-1.2687,7.2281,3
1646632455798495002,6864,1646632455798265908,gnss,-1,1,35.153164312,136.967259846,84.9277,2.9118,1.6431,-1.2269,1.6431,3.1182,-1.2684,-1.2269,-1.2684,7.2281,3
1646632455997743328,6865,1646632455997511321,gnss,-1,1,35.153170785,136.967248145,84.7684,2.9839,1.6619,-1.3479,1.6619,3.0448,-1.4641,-1.3479,-1.4641,7.2079,3
1646632456197755815,6866,1646632456197653187,gnss,-1,1,35.153176772,136.967235408,84.7137,2.9839,1.6619,-1.3478,1.6619,3.0448,-1.4639,-1.3478,-1.4639,7.2079,3
1646632456400838244,6867,1646632456400580326,gnss,-1,1,35.153181701,136.967221444,84.5218,2.8108,1.3758,-1.7871,1.3758,2.9184,-1.8261,-1.7871,-1.8261,7.0751,3
1646632456622059080,6868,1646632456621920126,gnss,-1,1,35.153187344,136.967208911,84.5093,2.8108,1.3758,-1.7871,1.3758,2.9184,-1.826,-1.7871,-1.826,7.075,3
1646632456793082269,6869,1646632456792950059,gnss,-1,1,35.153194128,136.967196943,84.6396,2.9118,1.6431,-1.2263,1.6431,3.1181,-1.267,-1.2263,-1.267,7.2281,3
1646632456994480581,6870,1646632456994340658,gnss,-1,1,35.153192829,136.967177614,87.6834,2.8238,1.5321,0.6186,1.5321,3.0784,-0.5351,0.6186,-0.5351,6.7225,3
1646632457195849656,6871,1646632457195709365,gnss,-1,1,35.153198394,136.967164233,87.7085,2.8239,1.5321,0.6189,1.5321,3.0784,-0.5345,0.6189,-0.5345,6.7225,3
1646632457397420567,6872,1646632457397173551,gnss,-1,1,35.15321218,136.967157874,84.4228,2.9118,1.6432,-1.226,1.6432,3.1181,-1.2661,-1.226,-1.2661,7.2281,3
1646632457599017065,6873,1646632457598842934,gnss,-1,1,35.153218554,136.96714557,84.3852,3.0509,1.8505,-1.2123,1.8505,3.218,-1.2544,-1.2123,-1.2544,7.2282,3
1646632457800779507,6874,1646632457800621134,gnss,-1,1,35.153223446,136.967131361,84.3917,3.0509,1.8505,-1.2121,1.8505,3.218,-1.2541,-1.2121,-1.2541,7.2281,3
1646632458001564301,6875,1646632458001357563,gnss,-1,1,35.153229227,136.967118082,84.3301,2.9839,1.6619,-1.3469,1.6619,3.0447,-1.462,-1.3469,-1.462,7.2077,3
1646632458192591789,6876,1646632458192475747,gnss,-1,1,35.153234553,136.967104871,84.2123,2.9839,1.6619,-1.3468,1.6619,3.0447,-1.4618,-1.3468,-1.4618,7.2077,3
1646632458394826063,6877,1646632458394582768,gnss,-1,1,35.153239029,136.967091291,84.2617,2.778,1.3269,-1.5779,1.3269,2.9023,-1.6558,-1.5779,-1.6558,7.1358,3
1646632458605521752,6878,1646632458605361798,gnss,-1,1,35.153244275,136.967078355,84.329,2.778,1.3269,-1.5779,1.3269,2.9023,-1.6556,-1.5779,-1.6556,7.1357,3
1646632458798668142,6879,1646632458798544030,gnss,-1,1,35.153249205,136.967065567,84.3603,2.778,1.3269,-1.5778,1.3269,2.9023,-1.6555,-1.5778,-1.6555,7.1357,3
1646632458998834416,6880,1646632458998707639,gnss,-1,1,35.153253841,136.96705312,84.2976,2.778,1.3269,-1.5778,1.3269,2.9023,-1.6553,-1.5778,-1.6553,7.1357,3
1646632459210213582,6881,1646632459210097805,gnss,-1,1,35.153259167,136.967041224,84.2766,2.778,1.3269,-1.5778,1.3269,2.9022,-1.6552,-1.5778,-1.6552,7.1356,3
1646632459401640067,6882,1646632459401471933,gnss,-1,1,35.153263661,136.967029917,84.3256,2.778,1.3269,-1.5777,1.3269,2.9022,-1.655,-1.5777,-1.655,7.1356,3
1646632459614914943,6883,1646632459614624450,gnss,-1,1,35.153267766,136.967018739,84.2132,2.8609,1.4759,-1.3396,1.4759,2.9658,-1.4554,-1.3396,-1.4554,7.2076,3
1646632459794860759,6884,1646632459794587162,gnss,-1,1,35.153272265,136.967007358,84.1723,2.8609,1.4759,-1.3395,1.4759,2.9658,-1.4552,-1.3395,-1.4552,7.2075,3
1646632460005974906,6885,1646632460005797644,gnss,-1,1,35.15327602,136.966997007,84.1831,2.8609,1.4759,-1.3394,1.4759,2.9658,-1.455,-1.3394,-1.455,7.2075,3
1646632460196164800,6886,1646632460196024070,gnss,-1,1,35.153280267,136.966987839,84.1465,2.8609,1.4759,-1.3393,1.4759,2.9658,-1.4548,-1.3393,-1.4548,7.2075,3
1646632460397331970,6887,1646632460397181879,gnss,-1,1,35.153283734,136.966978233,84.0625,2.7693,1.3227,-1.4938,1.3227,2.9051,-1.5747,-1.4938,-1.5747,7.1817,3
1646632460599442474,6888,1646632460599228301,gnss,-1,1,35.153287628,136.966970205,83.949,2.7693,1.3227,-1.4938,1.3227,2.9051,-1.5745,-1.4938,-1.5745,7.1816,3
1646632460800732931,6889,1646632460800436470,gnss,-1,1,35.153291036,136.966962241,83.8635,2.7693,1.3227,-1.4937,1.3227,2.9051,-1.5743,-1.4937,-1.5743,7.1816,3
1646632461002346985,6890,1646632461002171619,gnss,-1,1,35.153294504,136.966954768,83.6991,2.7693,1.3227,-1.4936,1.3227,2.9051,-1.5742,-1.4936,-1.5742,7.1816,3
1646632461213576296,6891,1646632461213458677,gnss,-1,1,35.1532985,136.966948119,83.626,2.7693,1.3227,-1.4936,1.3227,2.9051,-1.574,-1.4936,-1.574,7.1816,3
1646632461395252826,6892,1646632461394942679,gnss,-1,1,35.15330076,136.966940327,83.6433,2.7693,1.3227,-1.4935,1.3227,2.9051,-1.5738,-1.4935,-1.5738,7.1815,3
1646632461596988167,6893,1646632461596643517,gnss,-1,1,35.153303014,136.966933751,83.6414,2.7693,1.3227,-1.4934,1.3227,2.9051,-1.5737,-1.4934,-1.5737,7.1815,3
1646632461798247481,6894,1646632461798024812,gnss,-1,1,35.153306141,136.966927771,83.533,2.7693,1.3227,-1.4934,1.3227,2.905,-1.5735,-1.4934,-1.5735,7.1815,3
1646632461999116744,6895,1646632461998850748,gnss,-1,1,35.15330852,136.966922012,83.4881,2.7693,1.3227,-1.4933,1.3227,2.905,-1.5733,-1.4933,-1.5733,7.1815,3
1646632462199147183,6896,1646632462199010095,gnss,-1,1,35.153310633,136.966916461,83.405,2.7693,1.3227,-1.4933,1.3227,2.905,-1.5731,-1.4933,-1.5731,7.1815,3
1646632462400486070,6897,1646632462400370005,gnss,-1,1,35.153312424,136.966911279,83.4617,2.7809,1.4307,-1.7547,1.4307,3.1325,-2.5292,-1.7547,-2.5292,7.9233,3
1646632462601716620,6898,1646632462601590831,gnss,-1,1,35.153314011,136.96690626,83.3986,2.7809,1.4307,-1.7546,1.4307,3.1324,-2.529,-1.7546,-2.529,7.9232,3
1646632462793951822,6899,1646632462793828201,gnss,-1,1,35.153315439,136.966902166,83.2088,2.7693,1.3227,-1.4931,1.3227,2.905,-1.5726,-1.4931,-1.5726,7.1814,3
1646632462995437436,6900,1646632462995252715,gnss,-1,1,35.153316688,136.966897974,83.1641,2.7693,1.3227,-1.493,1.3227,2.905,-1.5724,-1.493,-1.5724,7.1814,3
1646632463226723386,6901,1646632463226587141,gnss,-1,1,35.153318429,136.966894406,83.0864,2.7694,1.3227,-1.493,1.3227,2.905,-1.5723,-1.493,-1.5723,7.1814,3
1646632463399361996,6902,1646632463399101784,gnss,-1,1,35.153319832,136.966891538,83.0578,2.7694,1.3227,-1.4929,1.3227,2.905,-1.5721,-1.4929,-1.5721,7.1813,3
1646632463599236243,6903,1646632463599026303,gnss,-1,1,35.153320478,136.966889425,83.0786,2.7694,1.3227,-1.4928,1.3227,2.905,-1.5719,-1.4928,-1.5719,7.1813,3
1646632463799494419,6904,1646632463799370910,gnss,-1,1,35.15332101,136.96688791,83.1379,2.7694,1.3227,-1.4928,1.3227,2.905,-1.5718,-1.4928,-1.5718,7.1813,3
1646632464000602409,6905,1646632464000491879,gnss,-1,1,35.153321902,136.966886703,83.0715,2.7694,1.3227,-1.4927,1.3227,2.905,-1.5716,-1.4927,-1.5716,7.1813,3
1646632464192744554,6906,1646632464192628777,gnss,-1,1,35.153322238,136.966885417,83.0768,2.7694,1.3227,-1.4927,1.3227,2.905,-1.5714,-1.4927,-1.5714,7.1813,3
1646632464396186266,6907,1646632464395903896,gnss,-1,1,35.153322447,136.966885313,82.9582,2.7694,1.3227,-1.4926,1.3227,2.9049,-1.5712,-1.4926,-1.5712,7.1812,3
1646632464597243478,6908,1646632464596980502,gnss,-1,1,35.153322399,136.966885753,83.0776,2.7694,1.3227,-1.4925,1.3227,2.9049,-1.5711,-1.4925,-1.5711,7.1812,3
1646632464797850490,6909,1646632464797607686,gnss,-1,1,35.153322447,136.966885363,83.004,2.7694,1.3227,-1.4925,1.3227,2.9049,-1.5709,-1.4925,-1.5709,7.1812,3
1646632464999824319,6910,1646632464999550636,gnss,-1,1,35.153322573,136.966885562,82.8829,2.7694,1.3227,-1.4924,1.3227,2.9049,-1.5707,-1.4924,-1.5707,7.1812,3
1646632465199897575,6911,1646632465199780165,gnss,-1,1,35.153322378,136.966885611,82.8528,2.7694,1.3227,-1.4923,1.3227,2.9049,-1.5706,-1.4923,-1.5706,7.1811,3
1646632465402566994,6912,1646632465402280648,gnss,-1,1,35.153322627,136.966886126,82.8446,2.7694,1.3228,-1.4923,1.3228,2.9049,-1.5704,-1.4923,-1.5704,7.1811,3
1646632465602502834,6913,1646632465602285247,gnss,-1,1,35.153323016,136.966886913,82.7087,2.7694,1.3228,-1.4922,1.3228,2.9049,-1.5702,-1.4922,-1.5702,7.1811,3
1646632465802589386,6914,1646632465802399777,gnss,-1,1,35.153322873,136.966887127,82.6508,2.7694,1.3228,-1.4922,1.3228,2.9049,-1.57,-1.4922,-1.57,7.1811,3
1646632465994937328,6915,1646632465994684893,gnss,-1,1,35.153322913,136.966887338,82.599,2.7694,1.3228,-1.4921,1.3228,2.9049,-1.5699,-1.4921,-1.5699,7.1811,3
1646632466195230114,6916,1646632466195102712,gnss,-1,1,35.15332315,136.966887653,82.5987,2.7694,1.3228,-1.492,1.3228,2.9049,-1.5697,-1.492,-1.5697,7.181,3
1646632466396595072,6917,1646632466396466401,gnss,-1,1,35.153323587,136.966888294,82.599,2.7694,1.3228,-1.492,1.3228,2.9049,-1.5695,-1.492,-1.5695,7.181,3
1646632466598599208,6918,1646632466598380640,gnss,-1,1,35.153322868,136.966888197,82.5984,2.7694,1.3228,-1.4919,1.3228,2.9049,-1.5694,-1.4919,-1.5694,7.181,3
1646632466799841355,6919,1646632466799730461,gnss,-1,1,35.153322806,136.966888195,82.5323,2.7694,1.3228,-1.4919,1.3228,2.9049,-1.5692,-1.4919,-1.5692,7.181,3
1646632467000979605,6920,1646632467000863140,gnss,-1,1,35.153323039,136.966888372,82.4927,2.7694,1.3228,-1.4918,1.3228,2.9048,-1.569,-1.4918,-1.569,7.181,3
1646632467202173883,6921,1646632467202066706,gnss,-1,1,35.15332334,136.96688787,82.5558,2.7694,1.3228,-1.4917,1.3228,2.9048,-1.5688,-1.4917,-1.5688,7.1809,3
1646632467393400358,6922,1646632467393270229,gnss,-1,1,35.153323656,136.966886603,82.4941,2.7694,1.3228,-1.4917,1.3228,2.9048,-1.5687,-1.4917,-1.5687,7.1809,3
1646632467594510252,6923,1646632467594392473,gnss,-1,1,35.153323823,136.966884952,82.4771,2.7694,1.3228,-1.4916,1.3228,2.9048,-1.5685,-1.4916,-1.5685,7.1809,3
1646632467796374610,6924,1646632467795983958,gnss,-1,1,35.153324252,136.966882705,82.549,2.7694,1.3228,-1.4915,1.3228,2.9048,-1.5683,-1.4915,-1.5683,7.1809,3
1646632467997159568,6925,1646632467997015414,gnss,-1,1,35.153325176,136.966880769,82.5297,2.7694,1.3228,-1.4915,1.3228,2.9048,-1.5682,-1.4915,-1.5682,7.1809,3
1646632468197408946,6926,1646632468197253045,gnss,-1,1,35.153325879,136.966878155,82.5924,2.7694,1.3228,-1.4914,1.3228,2.9048,-1.568,-1.4914,-1.568,7.1808,3
1646632468398563614,6927,1646632468398450499,gnss,-1,1,35.15332655,136.96687519,82.6507,2.7694,1.3228,-1.4914,1.3228,2.9048,-1.5678,-1.4914,-1.5678,7.1808,3
1646632468600398694,6928,1646632468600294437,gnss,-1,1,35.153327177,136.966870548,82.9821,2.781,1.4303,-1.7523,1.4303,3.1317,-2.5248,-1.7523,-2.5248,7.9226,3
1646632468801629424,6929,1646632468801516000,gnss,-1,1,35.153328692,136.966868042,82.8046,2.7695,1.3228,-1.4912,1.3228,2.9048,-1.5675,-1.4912,-1.5675,7.1808,3
1646632468993461430,6930,1646632468993265128,gnss,-1,1,35.15332991,136.96686406,82.8314,2.7695,1.3228,-1.4912,1.3228,2.9048,-1.5673,-1.4912,-1.5673,7.1807,3
1646632469194843715,6931,1646632469194716644,gnss,-1,1,35.153331682,136.96686019,82.8108,2.7695,1.3228,-1.4911,1.3228,2.9048,-1.5671,-1.4911,-1.5671,7.1807,3
1646632469395603326,6932,1646632469395431584,gnss,-1,1,35.153333151,136.966854561,83.0151,2.781,1.4303,-1.752,1.4303,3.1316,-2.5243,-1.752,-2.5243,7.9225,3
1646632469597540797,6933,1646632469597364328,gnss,-1,1,35.15333447,136.966850276,82.9301,2.7695,1.3228,-1.491,1.3228,2.9047,-1.5668,-1.491,-1.5668,7.1807,3
1646632469799911369,6934,1646632469799661236,gnss,-1,1,35.153336657,136.96684567,82.9206,2.7695,1.3228,-1.4909,1.3228,2.9047,-1.5666,-1.4909,-1.5666,7.1807,3
1646632470002075994,6935,1646632470001797609,gnss,-1,1,35.153339067,136.966841095,82.9022,2.781,1.4302,-1.7518,1.4302,3.1315,-2.5238,-1.7518,-2.5238,7.9225,3
1646632470201128236,6936,1646632470201020760,gnss,-1,1,35.153341138,136.966835915,82.8938,2.781,1.4302,-1.7517,1.4302,3.1315,-2.5237,-1.7517,-2.5237,7.9224,3
1646632470393953807,6937,1646632470393607390,gnss,-1,1,35.153343819,136.966830525,82.9684,2.781,1.4302,-1.7516,1.4302,3.1314,-2.5235,-1.7516,-2.5235,7.9224,3
1646632470594108091,6938,1646632470593974830,gnss,-1,1,35.153345043,136.96682424,82.5664,2.7096,1.205,-1.6605,1.205,2.8579,-1.7138,-1.6605,-1.7138,7.1196,3
1646632470796132738,6939,1646632470795867609,gnss,-1,1,35.153346863,136.966818355,82.3197,2.6629,1.1129,-1.7918,1.1129,2.8259,-1.8229,-1.7918,-1.8229,7.0617,3
1646632470996359039,6940,1646632470996243187,gnss,-1,1,35.153349534,136.966812222,82.3015,2.6629,1.1129,-1.7918,1.1129,2.8259,-1.8227,-1.7918,-1.8227,7.0617,3
1646632471197554340,6941,1646632471197428971,gnss,-1,1,35.153352237,136.966806439,82.242,2.6629,1.1129,-1.7918,1.1129,2.8259,-1.8226,-1.7918,-1.8226,7.0617,3
1646632471399771938,6942,1646632471399534071,gnss,-1,1,35.153354684,136.966798993,82.4293,2.6751,1.2401,-2.0159,1.2401,3.0592,-2.6903,-2.0159,-2.6903,7.8124,3
1646632471601594287,6943,1646632471601388846,gnss,-1,1,35.153356958,136.966792228,82.4101,2.6751,1.2401,-2.0159,1.2401,3.0592,-2.6902,-2.0159,-2.6902,7.8124,3
1646632471793685706,6944,1646632471793490686,gnss,-1,1,35.153359788,136.966785611,82.3378,2.6751,1.2401,-2.0159,1.2401,3.0592,-2.6901,-2.0159,-2.6901,7.8123,3
1646632472005545987,6945,1646632472005384547,gnss,-1,1,35.153362635,136.966778328,82.2623,2.6751,1.2401,-2.0158,1.2401,3.0591,-2.69,-2.0158,-2.69,7.8123,3
1646632472195750392,6946,1646632472195626545,gnss,-1,1,35.153365756,136.96677203,82.0993,2.6629,1.1129,-1.7917,1.1129,2.8258,-1.822,-1.7917,-1.822,7.0614,3
1646632472398146973,6947,1646632472397935585,gnss,-1,1,35.153368652,136.966764581,82.0787,2.6629,1.1129,-1.7917,1.1129,2.8258,-1.8219,-1.7917,-1.8219,7.0614,3
1646632472599409113,6948,1646632472599142843,gnss,-1,1,35.153372112,136.966756824,82.0107,2.6629,1.1129,-1.7916,1.1129,2.8258,-1.8218,-1.7916,-1.8218,7.0613,3
1646632472799600493,6949,1646632472799349642,gnss,-1,1,35.153375662,136.96674894,81.9046,2.6629,1.1129,-1.7916,1.1129,2.8258,-1.8216,-1.7916,-1.8216,7.0613,3
1646632472999821139,6950,1646632472999558500,gnss,-1,1,35.153379377,136.966741174,81.8144,2.6629,1.1129,-1.7916,1.1129,2.8258,-1.8215,-1.7916,-1.8215,7.0612,3
1646632473200019639,6951,1646632473199899140,gnss,-1,1,35.153382527,136.966732842,81.8575,2.6629,1.1129,-1.7916,1.1129,2.8258,-1.8214,-1.7916,-1.8214,7.0612,3
1646632473401885131,6952,1646632473401716472,gnss,-1,1,35.153386265,136.96672441,81.7919,2.6629,1.1129,-1.7915,1.1129,2.8258,-1.8213,-1.7915,-1.8213,7.0611,3
1646632473594297057,6953,1646632473594028680,gnss,-1,1,35.153389927,136.966715322,81.8014,2.6629,1.1129,-1.7915,1.1129,2.8257,-1.8211,-1.7915,-1.8211,7.0611,3
1646632473795957601,6954,1646632473795717957,gnss,-1,1,35.153393999,136.966706115,81.7876,2.6629,1.1129,-1.7915,1.1129,2.8257,-1.821,-1.7915,-1.821,7.0611,3
1646632473996724705,6955,1646632473996615227,gnss,-1,1,35.153398002,136.966697511,81.5697,2.6751,1.24,-2.0155,1.24,3.0589,-2.6888,-2.0155,-2.6888,7.8117,3
1646632474197992005,6956,1646632474197856002,gnss,-1,1,35.153401612,136.966687824,81.5402,2.6629,1.1129,-1.7915,1.1129,2.8257,-1.8208,-1.7915,-1.8208,7.061,3
1646632474399249237,6957,1646632474399106391,gnss,-1,1,35.153405604,136.966677586,81.4761,2.6629,1.1129,-1.7914,1.1129,2.8257,-1.8207,-1.7914,-1.8207,7.0609,3
1646632474600413859,6958,1646632474600286817,gnss,-1,1,35.153409686,136.966667718,81.3125,2.6629,1.1129,-1.7914,1.1129,2.8257,-1.8205,-1.7914,-1.8205,7.0609,3
1646632474803187391,6959,1646632474802729829,gnss,-1,1,35.153414213,136.966657725,81.2212,2.6629,1.1129,-1.7914,1.1129,2.8257,-1.8204,-1.7914,-1.8204,7.0608,3
1646632474993599616,6960,1646632474993443425,gnss,-1,1,35.153418178,136.966647616,81.0842,2.6629,1.1129,-1.7914,1.1129,2.8257,-1.8203,-1.7914,-1.8203,7.0608,3
1646632475215115196,6961,1646632475214986206,gnss,-1,1,35.153422693,136.966637082,80.9926,2.6629,1.1129,-1.7914,1.1129,2.8257,-1.8202,-1.7914,-1.8202,7.0607,3
1646632475396858583,6962,1646632475396653757,gnss,-1,1,35.153427077,136.96662702,80.8501,2.6629,1.1129,-1.7913,1.1129,2.8257,-1.82,-1.7913,-1.82,7.0607,3
1646632475599194097,6963,1646632475598956492,gnss,-1,1,35.153431294,136.966616545,80.7837,2.6629,1.1129,-1.7913,1.1129,2.8257,-1.8199,-1.7913,-1.8199,7.0606,3
1646632475800891463,6964,1646632475800627761,gnss,-1,1,35.153435688,136.96660552,80.7722,2.663,1.1129,-1.7913,1.1129,2.8256,-1.8198,-1.7913,-1.8198,7.0606,3
1646632476001212172,6965,1646632476000920304,gnss,-1,1,35.153440544,136.966595102,80.5927,2.663,1.1129,-1.7913,1.1129,2.8256,-1.8197,-1.7913,-1.8197,7.0605,3
1646632476201307853,6966,1646632476201196318,gnss,-1,1,35.153444899,136.966584664,80.5301,2.663,1.1129,-1.7912,1.1129,2.8256,-1.8195,-1.7912,-1.8195,7.0605,3
1646632476293631547,6967,1646632476293349342,gnss,-1,1,35.153444899,136.966584664,80.5301,2.663,1.1129,-1.7912,1.1129,2.8256,-1.8195,-1.7912,-1.8195,7.0605,3
1646632476296305599,6968,1646632476295939879,gnss,-1,1,35.153444899,136.966584664,80.5301,2.663,1.1129,-1.7912,1.1129,2.8256,-1.8195,-1.7912,-1.8195,7.0605,3
1646632476298302246,6969,1646632476298057654,gnss,-1,1,35.153444899,136.966584664,80.5301,2.663,1.1129,-1.7912,1.1129,2.8256,-1.8195,-1.7912,-1.8195,7.0605,3
1646632476394841713,6970,1646632476394439306,gnss,-1,1,35.153448896,136.96657389,80.3162,2.663,1.1129,-1.7912,1.1129,2.8256,-1.8194,-1.7912,-1.8194,7.0605,3
1646632476595897695,6971,1646632476595655351,gnss,-1,1,35.153453392,136.966563435,80.2417,2.663,1.1129,-1.7912,1.1129,2.8256,-1.8193,-1.7912,-1.8193,7.0604,3
1646632476797646177,6972,1646632476797410029,gnss,-1,1,35.153457203,136.966552751,80.1762,2.6752,1.2399,-2.015,1.2399,3.0586,-2.6873,-2.015,-2.6873,7.811,3
1646632476998514677,6973,1646632476998217406,gnss,-1,1,35.153461187,136.966542976,79.9427,2.663,1.1129,-1.7912,1.1129,2.8256,-1.8191,-1.7912,-1.8191,7.0603,3
1646632477198716463,6974,1646632477198593031,gnss,-1,1,35.153465351,136.966532759,79.8533,2.663,1.1129,-1.7911,1.1129,2.8256,-1.8189,-1.7911,-1.8189,7.0603,3
1646632477400130829,6975,1646632477399927862,gnss,-1,1,35.153469467,136.966522661,79.7631,2.663,1.1129,-1.7911,1.1129,2.8256,-1.8188,-1.7911,-1.8188,7.0602,3
1646632477611576542,6976,1646632477611315952,gnss,-1,1,35.153472916,136.96651294,79.7515,2.663,1.1129,-1.7911,1.1129,2.8256,-1.8187,-1.7911,-1.8187,7.0602,3
1646632477801793860,6977,1646632477801679349,gnss,-1,1,35.153476354,136.966503543,79.6972,2.663,1.1129,-1.7911,1.1129,2.8255,-1.8186,-1.7911,-1.8186,7.0601,3
1646632478003042293,6978,1646632478002929731,gnss,-1,1,35.153480838,136.966494406,79.5311,2.663,1.1129,-1.7911,1.1129,2.8255,-1.8184,-1.7911,-1.8184,7.0601,3
1646632478194241526,6979,1646632478194120980,gnss,-1,1,35.153484307,136.966484895,79.5076,2.663,1.1129,-1.791,1.1129,2.8255,-1.8183,-1.791,-1.8183,7.06,3
1646632478394500739,6980,1646632478394385647,gnss,-1,1,35.153487947,136.966476646,79.5433,2.663,1.113,-1.791,1.113,2.8255,-1.8182,-1.791,-1.8182,7.06,3
1646632478597639548,6981,1646632478597381252,gnss,-1,1,35.153491982,136.966468064,79.4568,2.663,1.113,-1.791,1.113,2.8255,-1.8181,-1.791,-1.8181,7.0599,3
1646632478798320764,6982,1646632478798167487,gnss,-1,1,35.153495531,136.966458941,79.4246,2.663,1.113,-1.791,1.113,2.8255,-1.8179,-1.791,-1.8179,7.0599,3
1646632479000478695,6983,1646632479000286432,gnss,-1,1,35.153498724,136.966450133,79.4437,2.663,1.113,-1.7909,1.113,2.8255,-1.8178,-1.7909,-1.8178,7.0598,3
1646632479200737754,6984,1646632479200619221,gnss,-1,1,35.153502377,136.966441613,79.316,2.663,1.113,-1.7909,1.113,2.8255,-1.8177,-1.7909,-1.8177,7.0598,3
1646632479402813391,6985,1646632479402577191,gnss,-1,1,35.15350596,136.966433418,79.3719,2.663,1.113,-1.7909,1.113,2.8255,-1.8176,-1.7909,-1.8176,7.0598,3
1646632479602107064,6986,1646632479601908507,gnss,-1,1,35.153509369,136.966425527,79.2595,2.6752,1.2397,-2.0146,1.2397,3.0582,-2.6857,-2.0146,-2.6857,7.8103,3
1646632479792319854,6987,1646632479792170724,gnss,-1,1,35.153512352,136.96641773,79.1719,2.6752,1.2397,-2.0146,1.2397,3.0582,-2.6856,-2.0146,-2.6856,7.8103,3
1646632479995055226,6988,1646632479994880576,gnss,-1,1,35.153515566,136.966409918,79.1791,2.6752,1.2397,-2.0145,1.2397,3.0582,-2.6854,-2.0145,-2.6854,7.8102,3
1646632480204411220,6989,1646632480204278440,gnss,-1,1,35.15351874,136.966402701,79.1889,2.6752,1.2397,-2.0145,1.2397,3.0581,-2.6853,-2.0145,-2.6853,7.8102,3
1646632480395643377,6990,1646632480395517697,gnss,-1,1,35.153522048,136.966395779,79.0802,2.6752,1.2397,-2.0145,1.2397,3.0581,-2.6852,-2.0145,-2.6852,7.8101,3
1646632480607845737,6991,1646632480607652243,gnss,-1,1,35.153524694,136.966389366,79.1118,2.663,1.113,-1.7908,1.113,2.8254,-1.8168,-1.7908,-1.8168,7.0595,3
1646632480799287746,6992,1646632480799048398,gnss,-1,1,35.153527139,136.966382793,79.1834,2.663,1.113,-1.7907,1.113,2.8254,-1.8167,-1.7907,-1.8167,7.0594,3
1646632481000555209,6993,1646632481000372910,gnss,-1,1,35.153529838,136.966376722,79.0631,2.6752,1.2396,-2.0144,1.2396,3.058,-2.6849,-2.0144,-2.6849,7.81,3
1646632481210844851,6994,1646632481210719783,gnss,-1,1,35.153532387,136.966371576,78.9885,2.6752,1.2396,-2.0143,1.2396,3.058,-2.6848,-2.0143,-2.6848,7.8099,3
1646632481402475779,6995,1646632481402319732,gnss,-1,1,35.153534475,136.966366334,79.0778,2.6752,1.2396,-2.0143,1.2396,3.058,-2.6846,-2.0143,-2.6846,7.8099,3
1646632481593589620,6996,1646632481593442834,gnss,-1,1,35.15353679,136.966361439,79.0085,2.6752,1.2396,-2.0143,1.2396,3.058,-2.6845,-2.0143,-2.6845,7.8098,3
1646632481794907387,6997,1646632481794792348,gnss,-1,1,35.153538722,136.966356608,78.9762,2.6752,1.2396,-2.0142,1.2396,3.0579,-2.6844,-2.0142,-2.6844,7.8098,3
1646632481995048969,6998,1646632481994916603,gnss,-1,1,35.15354062,136.96635204,78.9565,2.6752,1.2396,-2.0142,1.2396,3.0579,-2.6843,-2.0142,-2.6843,7.8097,3
1646632482196154528,6999,1646632482196029959,gnss,-1,1,35.153542417,136.966348249,78.883,2.6752,1.2396,-2.0141,1.2396,3.0579,-2.6842,-2.0141,-2.6842,7.8097,3
1646632482287302253,7000,1646632482287130055,gnss,-1,1,35.153542417,136.966348249,78.883,2.6752,1.2396,-2.0141,1.2396,3.0579,-2.6842,-2.0141,-2.6842,7.8097,3
1646632482288584218,7001,1646632482288429490,gnss,-1,1,35.153542417,136.966348249,78.883,2.6752,1.2396,-2.0141,1.2396,3.0579,-2.6842,-2.0141,-2.6842,7.8097,3
1646632482290015508,7002,1646632482289867485,gnss,-1,1,35.153542417,136.966348249,78.883,2.6752,1.2396,-2.0141,1.2396,3.0579,-2.6842,-2.0141,-2.6842,7.8097,3
1646632482397358788,7003,1646632482397200448,gnss,-1,1,35.153543536,136.966344734,78.7162,2.6752,1.2395,-2.0141,1.2395,3.0579,-2.6841,-2.0141,-2.6841,7.8096,3
1646632482608309116,7004,1646632482608120637,gnss,-1,1,35.153544272,136.966341092,78.6835,2.6752,1.2395,-2.0141,1.2395,3.0579,-2.684,-2.0141,-2.684,7.8096,3
1646632482798906958,7005,1646632482798702181,gnss,-1,1,35.153545183,136.966339074,78.5569,2.6631,1.113,-1.7905,1.113,2.8253,-1.8155,-1.7905,-1.8155,7.059,3
1646632483000712085,7006,1646632483000511662,gnss,-1,1,35.153545883,136.966336163,78.5358,2.6631,1.113,-1.7905,1.113,2.8253,-1.8154,-1.7905,-1.8154,7.0589,3
1646632483201721404,7007,1646632483201617125,gnss,-1,1,35.153546651,136.966333654,78.5915,2.6631,1.113,-1.7905,1.113,2.8253,-1.8153,-1.7905,-1.8153,7.0589,3
1646632483393836186,7008,1646632483393619863,gnss,-1,1,35.153546915,136.966331543,78.6581,2.6631,1.113,-1.7905,1.113,2.8253,-1.8151,-1.7905,-1.8151,7.0588,3
1646632483614840150,7009,1646632483614611415,gnss,-1,1,35.153547449,136.966330064,78.6337,2.6631,1.113,-1.7904,1.113,2.8253,-1.815,-1.7904,-1.815,7.0588,3
1646632483796618098,7010,1646632483796378846,gnss,-1,1,35.153547955,136.966328778,78.5927,2.6631,1.113,-1.7904,1.113,2.8253,-1.8149,-1.7904,-1.8149,7.0587,3
1646632483996616193,7011,1646632483996345497,gnss,-1,1,35.153548138,136.966327759,78.6803,2.6631,1.113,-1.7904,1.113,2.8253,-1.8148,-1.7904,-1.8148,7.0587,3
1646632484206788137,7012,1646632484206648464,gnss,-1,1,35.153548106,136.966327284,78.6998,2.6631,1.113,-1.7904,1.113,2.8253,-1.8146,-1.7904,-1.8146,7.0586,3
1646632484399196472,7013,1646632484398953479,gnss,-1,1,35.153548068,136.966326441,78.7254,2.6631,1.113,-1.7904,1.113,2.8252,-1.8145,-1.7904,-1.8145,7.0586,3
1646632484600791041,7014,1646632484600512044,gnss,-1,1,35.153548236,136.96632662,78.6837,2.6631,1.113,-1.7903,1.113,2.8252,-1.8144,-1.7903,-1.8144,7.0585,3
1646632484802179733,7015,1646632484801936925,gnss,-1,1,35.153548559,136.966326673,78.7073,2.6631,1.113,-1.7903,1.113,2.8252,-1.8143,-1.7903,-1.8143,7.0585,3
1646632485004615213,7016,1646632485004305353,gnss,-1,1,35.15354859,136.966326568,78.7546,2.6631,1.113,-1.7903,1.113,2.8252,-1.8142,-1.7903,-1.8142,7.0585,3
1646632485203765449,7017,1646632485203643196,gnss,-1,1,35.153548675,136.966326535,78.6527,2.6631,1.113,-1.7903,1.113,2.8252,-1.814,-1.7903,-1.814,7.0584,3
1646632485395072118,7018,1646632485394938274,gnss,-1,1,35.153548759,136.9663269,78.6794,2.6631,1.113,-1.7902,1.113,2.8252,-1.8139,-1.7902,-1.8139,7.0584,3
1646632485596242636,7019,1646632485596139566,gnss,-1,1,35.153548626,136.966327309,78.6714,2.6631,1.113,-1.7902,1.113,2.8252,-1.8138,-1.7902,-1.8138,7.0583,3
1646632485797418570,7020,1646632485797285914,gnss,-1,1,35.153548835,136.966327481,78.6547,2.6631,1.113,-1.7902,1.113,2.8252,-1.8137,-1.7902,-1.8137,7.0583,3
1646632485999264090,7021,1646632485999136091,gnss,-1,1,35.153548854,136.966327581,78.7172,2.6631,1.113,-1.7902,1.113,2.8252,-1.8135,-1.7902,-1.8135,7.0582,3
1646632486200289912,7022,1646632486200153509,gnss,-1,1,35.153548714,136.966327489,78.8045,2.6631,1.113,-1.7902,1.113,2.8252,-1.8134,-1.7902,-1.8134,7.0582,3
1646632486402767194,7023,1646632486402519754,gnss,-1,1,35.153549054,136.96632743,78.6987,2.6631,1.113,-1.7901,1.113,2.8252,-1.8133,-1.7901,-1.8133,7.0581,3
1646632486614259759,7024,1646632486613565551,gnss,-1,1,35.153549099,136.966327782,78.633,2.6631,1.113,-1.7901,1.113,2.8251,-1.8132,-1.7901,-1.8132,7.0581,3
1646632486795474041,7025,1646632486795187100,gnss,-1,1,35.153549113,136.966327792,78.6134,2.6631,1.113,-1.7901,1.113,2.8251,-1.8131,-1.7901,-1.8131,7.058,3
1646632486996989451,7026,1646632486996742013,gnss,-1,1,35.153549261,136.966327287,78.6556,2.6631,1.113,-1.7901,1.113,2.8251,-1.8129,-1.7901,-1.8129,7.058,3
1646632487216233608,7027,1646632487216113537,gnss,-1,1,35.1535493,136.966326938,78.593,2.6631,1.113,-1.79,1.113,2.8251,-1.8128,-1.79,-1.8128,7.0579,3
1646632487398634844,7028,1646632487398340987,gnss,-1,1,35.153549779,136.966326981,78.4893,2.6631,1.113,-1.79,1.113,2.8251,-1.8127,-1.79,-1.8127,7.0579,3
1646632487599524607,7029,1646632487599291736,gnss,-1,1,35.153550023,136.966327031,78.4819,2.6632,1.113,-1.79,1.113,2.8251,-1.8126,-1.79,-1.8126,7.0578,3
1646632487799676132,7030,1646632487799444824,gnss,-1,1,35.153550078,136.966326966,78.4734,2.6632,1.113,-1.79,1.113,2.8251,-1.8125,-1.79,-1.8125,7.0578,3
1646632487999863401,7031,1646632487999671368,gnss,-1,1,35.15355041,136.966327537,78.5111,2.6632,1.113,-1.79,1.113,2.8251,-1.8123,-1.79,-1.8123,7.0578,3
1646632488201059614,7032,1646632488200953012,gnss,-1,1,35.153550507,136.966327722,78.4945,2.6632,1.113,-1.7899,1.113,2.8251,-1.8122,-1.7899,-1.8122,7.0577,3
1646632488393130155,7033,1646632488392931095,gnss,-1,1,35.153550559,136.966327669,78.5704,2.6632,1.113,-1.7899,1.113,2.8251,-1.8121,-1.7899,-1.8121,7.0577,3
1646632488593610883,7034,1646632488593470152,gnss,-1,1,35.153550926,136.966327792,78.5458,2.6632,1.113,-1.7899,1.113,2.8251,-1.812,-1.7899,-1.812,7.0576,3
1646632488793820364,7035,1646632488793696985,gnss,-1,1,35.15355066,136.966327823,78.5653,2.6632,1.113,-1.7899,1.113,2.825,-1.8118,-1.7899,-1.8118,7.0576,3
1646632488996844354,7036,1646632488996572449,gnss,-1,1,35.153550867,136.966327881,78.4995,2.6632,1.113,-1.7898,1.113,2.825,-1.8117,-1.7898,-1.8117,7.0575,3
1646632489206505495,7037,1646632489206386893,gnss,-1,1,35.153551131,136.966327855,78.5165,2.6632,1.113,-1.7898,1.113,2.825,-1.8116,-1.7898,-1.8116,7.0575,3
1646632489397746119,7038,1646632489397592738,gnss,-1,1,35.153551224,136.966327633,78.4246,2.6632,1.113,-1.7898,1.113,2.825,-1.8115,-1.7898,-1.8115,7.0574,3
1646632489599446099,7039,1646632489599271875,gnss,-1,1,35.153551292,136.966327709,78.4381,2.6632,1.113,-1.7898,1.113,2.825,-1.8114,-1.7898,-1.8114,7.0574,3
1646632489799679829,7040,1646632489799565565,gnss,-1,1,35.153551541,136.966327495,78.5054,2.6632,1.113,-1.7898,1.113,2.825,-1.8112,-1.7898,-1.8112,7.0573,3
1646632490001001457,7041,1646632490000808215,gnss,-1,1,35.153551393,136.966327411,78.5286,2.6632,1.113,-1.7897,1.113,2.825,-1.8111,-1.7897,-1.8111,7.0573,3
1646632490215664696,7042,1646632490215279125,gnss,-1,1,35.153551584,136.966327684,78.5715,2.6632,1.113,-1.7897,1.113,2.825,-1.811,-1.7897,-1.811,7.0572,3
1646632490395264648,7043,1646632490395022704,gnss,-1,1,35.153551533,136.966327959,78.5084,2.6632,1.113,-1.7897,1.113,2.825,-1.8109,-1.7897,-1.8109,7.0572,3
1646632490605001936,7044,1646632490604844379,gnss,-1,1,35.153551655,136.966327702,78.5567,2.6632,1.113,-1.7897,1.113,2.825,-1.8107,-1.7897,-1.8107,7.0571,3
1646632490797251823,7045,1646632490797000299,gnss,-1,1,35.153551519,136.966327417,78.6084,2.6632,1.113,-1.7896,1.113,2.825,-1.8106,-1.7896,-1.8106,7.0571,3
1646632490998499598,7046,1646632490998244847,gnss,-1,1,35.153551678,136.966328027,78.5722,2.6632,1.113,-1.7896,1.113,2.8249,-1.8105,-1.7896,-1.8105,7.0571,3
1646632491197609189,7047,1646632491197486944,gnss,-1,1,35.153551586,136.966327931,78.711,2.6632,1.113,-1.7896,1.113,2.8249,-1.8104,-1.7896,-1.8104,7.057,3
1646632491398277714,7048,1646632491398121565,gnss,-1,1,35.153551395,136.966328141,78.7743,2.6632,1.113,-1.7896,1.113,2.8249,-1.8103,-1.7896,-1.8103,7.057,3
1646632491598420260,7049,1646632491598301714,gnss,-1,1,35.153551514,136.966327549,78.8269,2.6632,1.113,-1.7896,1.113,2.8249,-1.8101,-1.7896,-1.8101,7.0569,3
1646632491799581607,7050,1646632491799449046,gnss,-1,1,35.153551585,136.966327666,78.8576,2.6632,1.113,-1.7895,1.113,2.8249,-1.81,-1.7895,-1.81,7.0569,3
1646632492001453564,7051,1646632492001271519,gnss,-1,1,35.153551806,136.966327633,78.9422,2.6632,1.113,-1.7895,1.113,2.8249,-1.8099,-1.7895,-1.8099,7.0568,3
1646632492201553910,7052,1646632492201446847,gnss,-1,1,35.153551472,136.966327384,79.0348,2.6632,1.113,-1.7895,1.113,2.8249,-1.8098,-1.7895,-1.8098,7.0568,3
1646632492393909011,7053,1646632492393531970,gnss,-1,1,35.153551589,136.966327468,79.0334,2.6632,1.113,-1.7895,1.113,2.8249,-1.8096,-1.7895,-1.8096,7.0567,3
1646632492603100058,7054,1646632492602875265,gnss,-1,1,35.153551603,136.966327394,79.1115,2.6632,1.113,-1.7894,1.113,2.8249,-1.8095,-1.7894,-1.8095,7.0567,3
1646632492794311272,7055,1646632492794200930,gnss,-1,1,35.153551693,136.966327303,79.1376,2.6632,1.113,-1.7894,1.113,2.8249,-1.8094,-1.7894,-1.8094,7.0566,3
1646632492995447581,7056,1646632492995302427,gnss,-1,1,35.153551061,136.966326914,79.1959,2.6632,1.113,-1.7894,1.113,2.8249,-1.8093,-1.7894,-1.8093,7.0566,3
1646632493215790689,7057,1646632493215677022,gnss,-1,1,35.153551447,136.966327147,79.1286,2.6632,1.113,-1.7894,1.113,2.8248,-1.8092,-1.7894,-1.8092,7.0565,3
1646632493397371928,7058,1646632493397262444,gnss,-1,1,35.153551225,136.966326938,79.1922,2.6632,1.113,-1.7893,1.113,2.8248,-1.809,-1.7893,-1.809,7.0565,3
1646632493607875294,7059,1646632493607745609,gnss,-1,1,35.15355144,136.966326468,79.2947,2.6633,1.113,-1.7893,1.113,2.8248,-1.8089,-1.7893,-1.8089,7.0564,3
1646632493799757007,7060,1646632493799491031,gnss,-1,1,35.153550978,136.966326595,79.4558,2.6633,1.113,-1.7893,1.113,2.8248,-1.8088,-1.7893,-1.8088,7.0564,3
1646632493999467170,7061,1646632493999303099,gnss,-1,1,35.153550823,136.966326139,79.505,2.6633,1.113,-1.7893,1.113,2.8248,-1.8087,-1.7893,-1.8087,7.0564,3
1646632494199789111,7062,1646632494199668398,gnss,-1,1,35.153550575,136.966325748,79.4345,2.6633,1.113,-1.7893,1.113,2.8248,-1.8085,-1.7893,-1.8085,7.0563,3
1646632494401343068,7063,1646632494401123364,gnss,-1,1,35.153550219,136.966325341,79.5813,2.6633,1.113,-1.7892,1.113,2.8248,-1.8084,-1.7892,-1.8084,7.0563,3
1646632494612760511,7064,1646632494612528963,gnss,-1,1,35.153550284,136.966325494,79.5875,2.6633,1.113,-1.7892,1.113,2.8248,-1.8083,-1.7892,-1.8083,7.0562,3
1646632494793751982,7065,1646632494793524574,gnss,-1,1,35.153550238,136.966325327,79.5659,2.6633,1.113,-1.7892,1.113,2.8248,-1.8082,-1.7892,-1.8082,7.0562,3
1646632494995337925,7066,1646632494995153371,gnss,-1,1,35.153550146,136.966325048,79.4844,2.6633,1.113,-1.7892,1.113,2.8248,-1.8081,-1.7892,-1.8081,7.0561,3
1646632495195709978,7067,1646632495195595461,gnss,-1,1,35.153550271,136.966325064,79.3973,2.6633,1.113,-1.7891,1.113,2.8248,-1.8079,-1.7891,-1.8079,7.0561,3
1646632495399494358,7068,1646632495398985476,gnss,-1,1,35.1535502,136.966325503,79.3612,2.6633,1.113,-1.7891,1.113,2.8247,-1.8078,-1.7891,-1.8078,7.056,3
1646632495609609250,7069,1646632495609358307,gnss,-1,1,35.153550149,136.966325538,79.4266,2.6633,1.113,-1.7891,1.113,2.8247,-1.8077,-1.7891,-1.8077,7.056,3
1646632495800947260,7070,1646632495800723444,gnss,-1,1,35.15355004,136.966325533,79.4495,2.6633,1.113,-1.7891,1.113,2.8247,-1.8076,-1.7891,-1.8076,7.0559,3
1646632496002312079,7071,1646632496002122415,gnss,-1,1,35.153549907,136.966325603,79.4441,2.6633,1.113,-1.7891,1.113,2.8247,-1.8074,-1.7891,-1.8074,7.0559,3
1646632496213232850,7072,1646632496213073297,gnss,-1,1,35.15354978,136.966325833,79.4757,2.6633,1.113,-1.789,1.113,2.8247,-1.8073,-1.789,-1.8073,7.0558,3
1646632496402418303,7073,1646632496402290931,gnss,-1,1,35.153549514,136.966325735,79.3788,2.6633,1.113,-1.789,1.113,2.8247,-1.8072,-1.789,-1.8072,7.0558,3
1646632496603719691,7074,1646632496603514751,gnss,-1,1,35.153549426,136.966325918,79.3087,2.6633,1.113,-1.789,1.113,2.8247,-1.8071,-1.789,-1.8071,7.0557,3
1646632496795263034,7075,1646632496795036608,gnss,-1,1,35.153549537,136.966325793,79.2032,2.6633,1.113,-1.789,1.113,2.8247,-1.807,-1.789,-1.807,7.0557,3
1646632496995594692,7076,1646632496995441286,gnss,-1,1,35.153549271,136.966325627,79.108,2.6633,1.113,-1.7889,1.113,2.8247,-1.8068,-1.7889,-1.8068,7.0556,3
1646632497196779627,7077,1646632497196678733,gnss,-1,1,35.153549425,136.96632568,79.0135,2.6633,1.113,-1.7889,1.113,2.8247,-1.8067,-1.7889,-1.8067,7.0556,3
1646632497397148573,7078,1646632497397019148,gnss,-1,1,35.153549081,136.966325816,78.9985,2.6633,1.113,-1.7889,1.113,2.8247,-1.8066,-1.7889,-1.8066,7.0556,3
1646632497598738598,7079,1646632497598567494,gnss,-1,1,35.153548819,136.966325705,79.1008,2.6633,1.113,-1.7889,1.113,2.8247,-1.8065,-1.7889,-1.8065,7.0555,3
1646632497799897645,7080,1646632497799772038,gnss,-1,1,35.153548659,136.966325214,79.1315,2.6633,1.113,-1.7889,1.113,2.8246,-1.8063,-1.7889,-1.8063,7.0555,3
1646632498002930466,7081,1646632498002731927,gnss,-1,1,35.153548652,136.966324797,79.1475,2.6633,1.113,-1.7888,1.113,2.8246,-1.8062,-1.7888,-1.8062,7.0554,3
1646632498193103879,7082,1646632498192970824,gnss,-1,1,35.153548911,136.966324861,79.0982,2.6633,1.113,-1.7888,1.113,2.8246,-1.8061,-1.7888,-1.8061,7.0554,3
1646632498395323925,7083,1646632498395136422,gnss,-1,1,35.153548852,136.966325191,79.0412,2.6633,1.113,-1.7888,1.113,2.8246,-1.806,-1.7888,-1.806,7.0553,3
1646632498616652698,7084,1646632498616415291,gnss,-1,1,35.153548596,136.966324793,78.9871,2.6633,1.113,-1.7888,1.113,2.8246,-1.8059,-1.7888,-1.8059,7.0553,3
1646632498797382166,7085,1646632498797184847,gnss,-1,1,35.153548725,136.966325122,79.0003,2.6633,1.113,-1.7887,1.113,2.8246,-1.8057,-1.7887,-1.8057,7.0552,3
1646632498998341886,7086,1646632498998127539,gnss,-1,1,35.153549042,136.966325887,78.9301,2.6633,1.113,-1.7887,1.113,2.8246,-1.8056,-1.7887,-1.8056,7.0552,3
1646632499218690557,7087,1646632499218584798,gnss,-1,1,35.153549158,136.966325829,78.955,2.6633,1.113,-1.7887,1.113,2.8246,-1.8055,-1.7887,-1.8055,7.0551,3
1646632499400793847,7088,1646632499400588361,gnss,-1,1,35.153549314,136.966326207,78.8565,2.6634,1.113,-1.7887,1.113,2.8246,-1.8054,-1.7887,-1.8054,7.0551,3
1646632499602316453,7089,1646632499602055787,gnss,-1,1,35.153549114,136.966326134,78.8848,2.6634,1.113,-1.7887,1.113,2.8246,-1.8052,-1.7887,-1.8052,7.055,3
1646632499792481490,7090,1646632499792352316,gnss,-1,1,35.153549119,136.966326028,78.8925,2.6634,1.113,-1.7886,1.113,2.8246,-1.8051,-1.7886,-1.8051,7.055,3
1646632499993666076,7091,1646632499993544498,gnss,-1,1,35.153548827,136.966326203,78.8513,2.6634,1.113,-1.7886,1.113,2.8245,-1.805,-1.7886,-1.805,7.0549,3
1646632500195017294,7092,1646632500194899508,gnss,-1,1,35.153548784,136.966326369,78.8355,2.6634,1.113,-1.7886,1.113,2.8245,-1.8049,-1.7886,-1.8049,7.0549,3
1646632500397102689,7093,1646632500396888462,gnss,-1,1,35.153548578,136.966326575,78.8889,2.6634,1.113,-1.7886,1.113,2.8245,-1.8048,-1.7886,-1.8048,7.0549,3
1646632500597645679,7094,1646632500597494972,gnss,-1,1,35.153548609,136.966326797,78.8728,2.6634,1.113,-1.7885,1.113,2.8245,-1.8046,-1.7885,-1.8046,7.0548,3
1646632500799665726,7095,1646632500799502039,gnss,-1,1,35.153548562,136.966326817,78.8403,2.6634,1.113,-1.7885,1.113,2.8245,-1.8045,-1.7885,-1.8045,7.0548,3
1646632501000679046,7096,1646632501000518798,gnss,-1,1,35.153548584,136.966326461,78.9177,2.6634,1.113,-1.7885,1.113,2.8245,-1.8044,-1.7885,-1.8044,7.0547,3
1646632501200052316,7097,1646632501199938647,gnss,-1,1,35.153548836,136.966327063,78.891,2.6634,1.113,-1.7885,1.113,2.8245,-1.8043,-1.7885,-1.8043,7.0547,3
1646632501401320497,7098,1646632501401212674,gnss,-1,1,35.153548856,136.96632655,78.862,2.6634,1.113,-1.7885,1.113,2.8245,-1.8041,-1.7885,-1.8041,7.0546,3
1646632501602615277,7099,1646632501602500645,gnss,-1,1,35.153548825,136.966325809,78.8745,2.6634,1.113,-1.7884,1.113,2.8245,-1.804,-1.7884,-1.804,7.0546,3
1646632501795674919,7100,1646632501795350741,gnss,-1,1,35.153548598,136.966325804,78.8785,2.6634,1.113,-1.7884,1.113,2.8245,-1.8039,-1.7884,-1.8039,7.0545,3
1646632501996514377,7101,1646632501996187624,gnss,-1,1,35.153548337,136.96632601,78.9194,2.6634,1.113,-1.7884,1.113,2.8245,-1.8038,-1.7884,-1.8038,7.0545,3
1646632502195592616,7102,1646632502195482644,gnss,-1,1,35.153548308,136.966326197,78.8106,2.6634,1.113,-1.7884,1.113,2.8244,-1.8037,-1.7884,-1.8037,7.0544,3
1646632502398525731,7103,1646632502398252239,gnss,-1,1,35.153548444,136.966326111,78.7981,2.6634,1.113,-1.7883,1.113,2.8244,-1.8035,-1.7883,-1.8035,7.0544,3
1646632502598230382,7104,1646632502598096441,gnss,-1,1,35.153548728,136.966326289,78.7619,2.6634,1.113,-1.7883,1.113,2.8244,-1.8034,-1.7883,-1.8034,7.0543,3
1646632502799425154,7105,1646632502799300286,gnss,-1,1,35.153549112,136.966326456,78.6726,2.6634,1.1131,-1.7883,1.1131,2.8244,-1.8033,-1.7883,-1.8033,7.0543,3
1646632503000704564,7106,1646632503000570638,gnss,-1,1,35.153549158,136.966326369,78.5927,2.6634,1.1131,-1.7883,1.1131,2.8244,-1.8032,-1.7883,-1.8032,7.0542,3
1646632503201870235,7107,1646632503201762268,gnss,-1,1,35.15354918,136.966326096,78.6803,2.6634,1.1131,-1.7883,1.1131,2.8244,-1.803,-1.7883,-1.803,7.0542,3
1646632503392103717,7108,1646632503392000412,gnss,-1,1,35.153549219,136.966326156,78.6314,2.6634,1.1131,-1.7882,1.1131,2.8244,-1.8029,-1.7882,-1.8029,7.0541,3
1646632503593281585,7109,1646632503593151657,gnss,-1,1,35.153548781,136.966326127,78.688,2.6634,1.1131,-1.7882,1.1131,2.8244,-1.8028,-1.7882,-1.8028,7.0541,3
1646632503796925754,7110,1646632503796523339,gnss,-1,1,35.153548346,136.966326074,78.613,2.6634,1.1131,-1.7882,1.1131,2.8244,-1.8027,-1.7882,-1.8027,7.054,3
1646632503996486276,7111,1646632503996343421,gnss,-1,1,35.153547972,136.966325616,78.6722,2.6634,1.1131,-1.7882,1.1131,2.8244,-1.8025,-1.7882,-1.8025,7.054,3
1646632504196776232,7112,1646632504196676113,gnss,-1,1,35.153547515,136.966325317,78.8168,2.6634,1.1131,-1.7881,1.1131,2.8244,-1.8024,-1.7881,-1.8024,7.054,3
1646632504398633535,7113,1646632504398441515,gnss,-1,1,35.153547233,136.966325112,78.8527,2.6634,1.1131,-1.7881,1.1131,2.8243,-1.8023,-1.7881,-1.8023,7.0539,3
1646632504600056146,7114,1646632504599855100,gnss,-1,1,35.153547051,136.966324953,78.8871,2.6634,1.1131,-1.7881,1.1131,2.8243,-1.8022,-1.7881,-1.8022,7.0539,3
1646632504801317164,7115,1646632504801099030,gnss,-1,1,35.153546797,136.966325048,78.8805,2.6634,1.1131,-1.7881,1.1131,2.8243,-1.8021,-1.7881,-1.8021,7.0538,3
1646632504993545521,7116,1646632504993315318,gnss,-1,1,35.153546654,136.966324507,78.9574,2.6634,1.1131,-1.7881,1.1131,2.8243,-1.8019,-1.7881,-1.8019,7.0538,3
1646632505213972584,7117,1646632505213868427,gnss,-1,1,35.153546647,136.966324426,78.9619,2.6635,1.1131,-1.788,1.1131,2.8243,-1.8018,-1.788,-1.8018,7.0537,3
1646632505395774812,7118,1646632505395568004,gnss,-1,1,35.153546503,136.966324557,79.0315,2.6635,1.1131,-1.788,1.1131,2.8243,-1.8017,-1.788,-1.8017,7.0537,3
1646632505595933855,7119,1646632505595816813,gnss,-1,1,35.153546611,136.966324289,79.0796,2.6635,1.1131,-1.788,1.1131,2.8243,-1.8016,-1.788,-1.8016,7.0536,3
1646632505796242082,7120,1646632505796132231,gnss,-1,1,35.153546443,136.966324139,79.1074,2.6635,1.1131,-1.788,1.1131,2.8243,-1.8014,-1.788,-1.8014,7.0536,3
